[
  {
    "slug": "luxury-grand-hotel-nashik",
    "name": "The Luxury Grand Hotel Nashik",
    "description": "Experience world-class luxury in the heart of Nashik. Our 5-star hotel offers premium amenities, stunning views of the vineyards, and exceptional service that will make your stay unforgettable.",
    "star_rating": 5,
    "room_count": 150,
    "check_in_time": "14:00",
    "check_out_time": "11:00",
    "address": {
      "street": "123 Mumbai-Agra Road",
      "city": "Nashik",
      "state": "Maharashtra",
      "country": "India",
      "postal_code": "422001",
      "landmark": "Near Sula Vineyards"
    },
    "location": {
      "latitude": 19.9975,
      "longitude": 73.7898
    },
    "phone": "+91-253-2234567",
    "email": "reservations@luxurygrandnashik.com",
    "website": "https://www.luxurygrandnashik.com",
    "primary_image_url": "https://images.unsplash.com/photo-1566073771259-6a8506099945",
    "thumbnail_url": "https://images.unsplash.com/photo-1566073771259-6a8506099945?w=400",
    "price_min": 8000.00,
    "price_max": 50000.00,
    "currency": "INR"
  },
  {
    "slug": "hotel-sai-comfort-nashik",
    "name": "Hotel Sai Comfort",
    "description": "A budget-friendly hotel perfect for pilgrims and business travelers. Clean, comfortable rooms with all basic amenities at affordable prices. Located near Shirdi highway.",
    "star_rating": 3,
    "room_count": 45,
    "check_in_time": "12:00",
    "check_out_time": "11:00",
    "address": {
      "street": "456 Shirdi Highway",
      "city": "Nashik",
      "state": "Maharashtra",
      "country": "India",
      "postal_code": "422009",
      "landmark": "Near CBS"
    },
    "location": {
      "latitude": 20.0063,
      "longitude": 73.7810
    },
    "phone": "+91-253-2345678",
    "email": "contact@hotelsaicomfort.com",
    "website": "https://www.hotelsaicomfort.com",
    "primary_image_url": "https://images.unsplash.com/photo-1564501049412-61c2a3083791",
    "thumbnail_url": "https://images.unsplash.com/photo-1564501049412-61c2a3083791?w=400",
    "price_min": 1500.00,
    "price_max": 4500.00,
    "currency": "INR"
  },
  {
    "slug": "vineyard-boutique-resort-nashik",
    "name": "Vineyard Boutique Resort & Spa",
    "description": "An exclusive boutique resort nestled in the scenic vineyards of Nashik. Perfect for wine lovers, couples, and those seeking a peaceful getaway. Features wine tasting tours, spa treatments, and gourmet dining.",
    "star_rating": 4,
    "room_count": 35,
    "check_in_time": "15:00",
    "check_out_time": "12:00",
    "address": {
      "street": "789 Nashik-Trimbak Road",
      "city": "Nashik",
      "state": "Maharashtra",
      "country": "India",
      "postal_code": "422003",
      "landmark": "Opposite York Winery"
    },
    "location": {
      "latitude": "19.9650",
      "longitude": "73.7550"
    },
    "phone": "+91-253-2456789",
    "email": "bookings@vineyardresort.com",
    "website": "https://www.vineyardboutiqueresort.com",
    "primary_image_url": "https://images.unsplash.com/photo-1571896349842-33c89424de2d",
    "thumbnail_url": "https://images.unsplash.com/photo-1571896349842-33c89424de2d?w=400",
    "price_min": 5500.00,
    "price_max": 25000.00,
    "currency": "INR"
  },
  {
    "slug": "test-hotel-minimal",
    "name": "Test Hotel",
    "star_rating": 3,
    "location": {
      "latitude": 20.0063,
      "longitude": 73.7810
    }
  }
]
